City_ID,City,Lat,Lng,Max Temp,Humidity,Cloudiness,Wind Speed,Country,Date
0,Tasiilaq,65.6145,-37.6368,26.91,67,0,8.01,GL,1604350800
1,Am Timan,11.0297,20.2827,81.81,34,29,2.55,TD,1604350800
2,Evensk,61.95,159.2333,25.47,97,99,5.46,RU,1604350800
3,Wollongong,-34.4333,150.8833,61.52,80,24,1.79,AU,1604350800
4,Punta Arenas,-53.15,-70.9167,56.21,56,87,2.42,CL,1604350800
5,Ereymentau,51.6199,73.1033,28.65,96,38,6.08,KZ,1604350800
6,Ushuaia,-54.8,-68.3,56.93,64,59,5.23,AR,1604350800
7,Cherskiy,68.75,161.3,-3.15,92,100,13.78,RU,1604350800
8,Umluj,25.0213,37.2685,80.2,72,66,7.31,SA,1604350800
9,Husavik,66.0449,-17.3389,39.69,70,87,12.01,IS,1604350800
10,Yellowknife,62.456,-114.3525,9.79,87,95,10.49,CA,1604350800
11,Port Hedland,-20.3167,118.5667,73.58,72,11,10.09,AU,1604350800
12,Rikitea,-23.1203,-134.9692,72.25,81,39,18.21,PF,1604350800
13,Kandana,7.048,79.8937,78.31,85,29,1.57,LK,1604350800
14,Albany,42.6001,-73.9662,34.66,70,48,14.81,US,1604350800
15,Young,-32.6833,-57.6333,71.55,53,51,7.31,UY,1604350800
16,Jamestown,42.097,-79.2353,34.66,79,94,18.48,US,1604350800
17,Ancud,-41.8697,-73.8203,55.78,72,85,8.39,CL,1604350800
18,Margate,51.3813,1.3862,51.06,65,7,28.59,GB,1604350800
19,San Quintín,30.4833,-115.95,74.48,54,0,11.74,MX,1604350800
20,Petatlán,17.5167,-101.2667,91.63,53,3,3.85,MX,1604350800
21,Fort Thomas,39.0751,-84.4472,47.34,39,1,10.76,US,1604350800
22,Lermontovka,47.1453,134.3383,28.04,92,71,8.08,RU,1604350800
23,Bluff,-46.6,168.3333,51.76,74,31,3.09,NZ,1604350800
24,Amapá,1.0,-52.0,87.6,55,63,1.07,BR,1604350800
25,Kwang Binh,17.4833,106.6,75.06,86,78,16.6,VN,1604350800
26,Chokurdakh,70.6333,147.9167,-9.44,90,97,10.56,RU,1604350800
27,Benjamin Constant,-4.3831,-70.0311,89.51,58,56,2.37,BR,1604350800
28,Mayor Pablo Lagerenza,-19.9309,-60.7718,94.03,18,0,8.7,PY,1604350800
29,Mae Sai,20.4335,99.8762,71.74,95,54,1.05,TH,1604350800
30,Nikolskoye,59.7035,30.7861,44.85,83,95,16.17,RU,1604350800
31,Saint-Augustin,51.226,-58.6502,52.83,93,100,31.81,CA,1604350800
32,Cerro Blanco,14.6667,-87.7833,66.65,97,87,6.24,HN,1604350800
33,Puerto Ayora,-0.7393,-90.3518,72.32,73,82,11.05,EC,1604350800
34,Hofn,64.2539,-15.2082,41.74,64,93,17.63,IS,1604350800
35,Bethel,41.3712,-73.414,37.31,55,1,15.01,US,1604350800
36,Itarema,-2.9248,-39.9167,83.62,69,12,13.51,BR,1604350800
37,Sambava,-14.2667,50.1667,71.22,81,8,10.78,MG,1604350800
38,Kenai,60.5544,-151.2583,25.32,49,1,18.01,US,1604350800
39,Cape Town,-33.9258,18.4232,67.62,76,0,8.86,ZA,1604350800
40,Drayton Valley,53.2168,-114.9854,52.56,55,82,7.9,CA,1604350800
41,Provideniya,64.3833,-173.3,27.03,83,39,5.12,RU,1604350800
42,Ponta do Sol,32.6667,-17.1,68.14,73,82,6.29,PT,1604350800
43,Bairiki Village,1.3292,172.9752,81.43,73,14,15.84,KI,1604350800
44,San Ignacio,17.1561,-89.0714,80.78,74,65,4.79,BZ,1604350800
45,São Filipe,14.8961,-24.4956,81.52,64,22,3.83,CV,1604350800
46,Andenes,69.3143,16.1194,46.24,92,87,18.9,NO,1604350800
47,Guadalupe y Calvo,26.1,-106.9667,73.36,22,60,5.23,MX,1604350800
48,Busselton,-33.65,115.3333,56.28,84,46,10.54,AU,1604350800
49,Katsuura,35.1333,140.3,59.41,90,100,5.21,JP,1604350800
50,Butaritari,3.0707,172.7902,81.0,76,80,16.89,KI,1604350800
51,Cidreira,-30.1811,-50.2056,65.93,57,0,8.05,BR,1604350800
52,The Valley,18.217,-63.0578,82.78,77,59,17.11,AI,1604350800
53,Thompson,55.7435,-97.8558,22.66,92,92,6.15,CA,1604350800
54,Timmins,48.4669,-81.3331,31.32,95,95,13.0,CA,1604350800
55,Oakland Park,26.1723,-80.132,76.03,64,80,28.05,US,1604350800
56,Ribeira Grande,38.5167,-28.7,62.15,65,51,16.75,PT,1604350800
57,Padang,-0.9492,100.3543,77.59,76,100,4.03,ID,1604350800
58,Lamar,33.6668,-95.5836,64.27,39,1,4.99,US,1604350800
59,Vaini,-21.2,-175.2,75.7,85,50,23.33,TO,1604350800
60,Atar,20.5169,-13.0499,87.21,14,100,10.09,MR,1604350800
61,Requena,39.4883,-1.1004,57.45,48,0,2.73,ES,1604350800
62,Guerrero Negro,27.9769,-114.0611,78.51,49,4,14.41,MX,1604350800
63,Mar del Plata,-38.0023,-57.5575,61.95,63,44,12.17,AR,1604350800
64,Kaitangata,-46.2817,169.8464,56.05,61,53,0.83,NZ,1604350800
65,Iqaluit,63.7506,-68.5145,19.18,77,87,12.55,CA,1604350800
66,Kapaa,22.0752,-159.319,79.34,77,53,9.98,US,1604350800
67,Ugoofaaru,5.6667,73.0,82.94,74,41,8.19,MV,1604350800
68,Hermanus,-34.4187,19.2345,63.79,87,0,10.42,ZA,1604350800
69,Tiksi,71.6872,128.8694,0.41,89,99,4.43,RU,1604350800
70,Saint Anthony,45.0205,-93.218,54.59,41,1,8.86,US,1604350800
71,Hilo,19.7297,-155.09,79.72,66,90,4.41,US,1604350800
72,Haines Junction,60.7522,-137.5108,5.85,69,99,3.71,CA,1604350800
73,Atuona,-9.8,-139.0333,77.54,76,40,20.11,PF,1604350800
74,Saint Paul Harbor,57.79,-152.4072,27.23,68,1,8.7,US,1604350800
75,Lata,40.1629,-8.3327,59.11,84,100,5.06,PT,1604350800
76,Anadyr,64.75,177.4833,18.16,93,95,4.54,RU,1604350800
77,Mataura,-46.1927,168.8643,55.76,67,72,1.05,NZ,1604350800
78,Lebu,-37.6167,-73.65,55.56,81,78,11.43,CL,1604350800
79,Hobart,-42.8794,147.3294,62.35,56,47,5.32,AU,1604350800
80,Avarua,-21.2078,-159.775,72.27,86,100,26.13,CK,1604350800
81,Richards Bay,-28.783,32.0377,68.25,91,80,5.03,ZA,1604350800
82,Atasū,48.6814,71.6433,33.06,93,0,5.79,KZ,1604350800
83,Avera,33.194,-82.5271,58.86,30,1,3.74,US,1604350800
84,Tazovsky,67.4667,78.7,18.86,98,98,11.81,RU,1604350800
85,Sola,-13.8833,167.55,79.72,79,93,4.36,VU,1604350800
86,Vilhena,-12.7406,-60.1458,83.59,53,69,1.97,BR,1604350800
87,La Santisima Trinidad,-14.8333,-64.9,95.67,30,29,2.33,BO,1604350800
88,Vostok,46.4856,135.8833,21.49,97,90,7.18,RU,1604350800
89,New Norfolk,-42.7826,147.0587,61.93,43,100,3.22,AU,1604350800
90,Honiara,-9.4333,159.95,78.1,88,87,6.24,SB,1604350800
91,Beausejour,50.0622,-96.5167,50.81,62,36,6.44,CA,1604350800
92,Vanavara,60.34,102.2797,28.2,98,94,8.1,RU,1604350800
93,Airai,-8.9266,125.4092,61.43,66,89,1.92,TL,1604350800
94,Leningradskiy,69.3833,178.4167,16.48,85,100,3.91,RU,1604350800
95,Fare,-16.7,-151.0167,80.46,78,6,19.82,PF,1604350800
96,Beringovskiy,63.05,179.3167,25.48,93,27,4.65,RU,1604350800
97,Port Alfred,-33.5906,26.891,67.03,81,28,20.71,ZA,1604350800
98,Preobrazheniye,42.9019,133.9064,34.12,79,46,11.36,RU,1604350800
99,Bredasdorp,-34.5322,20.0403,64.87,88,19,12.17,ZA,1604350800
100,Lavrentiya,65.5833,-171.0,19.92,87,5,3.58,RU,1604350800
101,Bambous Virieux,-20.3428,57.7575,71.58,71,42,11.21,MU,1604350800
102,Singaparna,-7.3515,108.111,70.36,90,74,2.42,ID,1604350800
103,Mahajanga,-15.7167,46.3167,78.22,85,53,1.95,MG,1604350800
104,Constitución,-35.3333,-72.4167,60.06,72,47,10.71,CL,1604350800
105,Tondano,1.3038,124.9112,72.91,93,59,4.63,ID,1604350800
106,Waipawa,-41.4122,175.5153,51.64,90,100,10.87,NZ,1604350800
107,Pisco,-13.7,-76.2167,68.22,72,91,9.24,PE,1604350800
108,Hithadhoo,-0.6,73.0833,83.01,74,63,11.07,MV,1604350800
109,St. Pete Beach,27.7253,-82.7412,72.64,52,1,22.24,US,1604350800
110,Touros,-5.1989,-35.4608,80.64,72,11,12.1,BR,1604350800
111,Sitka,57.0531,-135.33,40.44,80,95,2.57,US,1604350800
112,Trairi,-3.2778,-39.2689,83.43,68,16,10.31,BR,1604350800
113,Bengkulu,-3.8004,102.2655,75.16,89,100,5.46,ID,1604350800
114,Mbuguni,-3.5667,36.95,70.11,74,36,8.46,TZ,1604350800
115,Takoradze,4.8845,-1.7554,79.34,85,82,5.46,GH,1604350800
116,Itoman,26.1247,127.6694,75.33,79,86,23.87,JP,1604350800
117,Manta,-0.95,-80.7333,78.57,70,65,17.31,EC,1604350800
118,Begowāl,31.6167,75.5167,61.66,56,0,2.3,IN,1604350800
119,Nara,34.6851,135.8049,56.41,67,87,7.78,JP,1604350800
120,Primo Tapia,32.22,-116.9172,76.6,51,1,9.35,MX,1604350800
121,Kem',64.9555,34.5793,40.21,84,65,22.53,RU,1604350800
122,Nolinsk,57.5596,49.9363,28.53,95,3,4.0,RU,1604350800
123,Shaoguan,24.8,113.5833,59.77,80,73,2.3,CN,1604350800
124,Faanui,-16.4833,-151.75,79.56,78,2,15.52,PF,1604350800
125,Bordighera,43.7806,7.6645,62.67,77,87,3.91,IT,1604350800
126,Ukiah,39.1502,-123.2078,89.37,13,1,4.47,US,1604350800
127,Pachino,36.7186,15.0907,64.18,84,0,1.83,IT,1604350800
128,Arraial do Cabo,-22.9661,-42.0278,69.85,63,12,13.22,BR,1604350800
129,Severo-Kuril'sk,50.6789,156.125,43.59,82,91,24.83,RU,1604350800
130,Quryq,43.2,51.65,57.16,53,67,1.25,KZ,1604350800
131,Saint-André-les-Vergers,48.2853,4.0521,55.49,84,95,7.31,FR,1604350800
132,Kiruna,67.8557,20.2251,35.73,99,100,10.49,SE,1604350800
133,San Patricio,28.017,-97.5169,74.17,38,25,7.36,US,1604350800
134,Barrow,71.2906,-156.7887,26.74,86,95,10.67,US,1604350800
135,Dikson,73.5069,80.5464,16.23,97,99,10.02,RU,1604350800
136,Khatanga,71.9667,102.5,12.36,96,100,8.34,RU,1604350800
137,Yārāda,17.65,83.2667,81.03,84,41,3.67,IN,1604350800
138,Lakatoro,-16.0999,167.4164,82.27,83,87,5.35,VU,1604350800
139,Iralaya,15.0,-83.2333,78.19,90,100,35.99,HN,1604350800
140,Hong Kong,22.2855,114.1577,70.05,67,35,12.88,HK,1604350800
141,Shangrao,28.4532,117.9686,55.22,90,1,2.35,CN,1604350800
142,Lompoc,34.6391,-120.4579,78.35,46,1,9.1,US,1604350800
143,Caravelas,-17.7125,-39.2481,73.11,75,89,10.87,BR,1604350800
144,Meulaboh,4.1363,96.1285,78.08,83,100,5.1,ID,1604350800
145,Jumla,29.2747,82.1838,44.29,60,0,6.78,NP,1604350800
146,Santa Vitória do Palmar,-33.5189,-53.3681,65.14,66,53,8.63,BR,1604350800
147,Kavieng,-2.5744,150.7967,83.57,72,46,4.36,PG,1604350800
148,Clovis,36.8252,-119.7029,82.4,21,38,3.36,US,1604350800
149,Saint-Philippe,-21.3585,55.7679,69.98,64,94,10.04,RE,1604350800
150,Guinguinéo,14.2667,-15.95,88.41,22,44,6.51,SN,1604350800
151,Maragogi,-9.0122,-35.2225,79.92,76,53,12.28,BR,1604350800
152,Porto-Novo,6.4965,2.6036,80.04,84,59,5.35,BJ,1604350800
153,Kandrian,-6.2167,149.55,80.67,82,41,2.93,PG,1604350800
154,Morón,-34.6534,-58.6198,72.63,32,6,9.22,AR,1604350800
155,Mezen',65.8522,44.24,30.65,90,16,14.03,RU,1604350800
156,Santa Cruz,30.4202,-9.5982,71.62,72,10,4.21,MA,1604350800
157,Saskylakh,71.9167,114.0833,5.85,93,99,7.02,RU,1604350800
158,Broome,42.2506,-75.833,33.24,68,51,11.05,US,1604350800
159,Souillac,-20.5167,57.5167,71.33,72,58,10.65,MU,1604350800
160,Yatou,37.15,122.3833,44.24,60,35,6.29,CN,1604350800
161,Sargatskoye,55.6101,73.4972,30.88,95,100,8.23,RU,1604350800
162,Wad Rāwah,15.1603,33.1397,88.36,20,0,19.13,SD,1604350800
163,Ţaga,46.95,24.05,46.94,88,95,0.89,RO,1604350800
164,Cabo San Lucas,22.8909,-109.9124,85.42,52,11,6.51,MX,1604350800
165,Castro,-24.7911,-50.0119,67.44,49,12,2.04,BR,1604350800
166,Brae,60.3964,-1.353,47.97,71,97,17.02,GB,1604350800
167,Port Elizabeth,-33.918,25.5701,64.94,86,0,14.47,ZA,1604350800
168,Mount Gambier,-37.8333,140.7667,66.22,55,97,10.2,AU,1604350800
169,Paracuru,-3.41,-39.0306,80.65,77,16,11.79,BR,1604350800
170,East London,-33.0153,27.9116,67.86,81,69,15.46,ZA,1604350800
171,Murgūd,16.4,74.2,69.94,66,0,4.34,IN,1604350800
172,Ryōtsu-minato,38.0833,138.4333,57.88,68,80,19.19,JP,1604350800
173,Inhambane,-23.865,35.3833,72.28,77,7,6.87,MZ,1604350800
174,Tokonou,9.65,-9.7833,76.73,59,11,0.96,GN,1604350800
175,Cookeville,36.1628,-85.5016,49.12,37,1,6.13,US,1604350800
176,Plettenberg Bay,-34.0527,23.3716,64.87,87,2,5.91,ZA,1604350800
177,Beeville,28.4008,-97.7483,72.72,49,55,6.42,US,1604350800
178,Pacific Grove,36.6177,-121.9166,69.37,44,1,7.78,US,1604350800
179,Uray,60.1247,64.7758,25.54,97,11,5.64,RU,1604350800
180,Dalby,-27.1833,151.2667,62.55,72,0,14.41,AU,1604350800
181,Buluang,13.3068,123.3425,77.09,88,100,2.35,PH,1604350800
182,Deloraine,-41.5333,146.6667,56.98,74,86,1.88,AU,1604350800
183,Naifaru,5.4444,73.3657,82.78,73,31,5.44,MV,1604350800
184,Chitral,35.8462,71.7858,52.99,32,0,5.14,PK,1604350800
185,Fort Nelson,58.8053,-122.7002,13.51,86,95,4.59,CA,1604350800
186,Ubinskoye,55.3068,79.6802,31.53,96,100,5.97,RU,1604350800
187,Yulara,-25.2406,130.9889,74.84,37,45,13.53,AU,1604350800
188,Norman Wells,65.282,-126.8329,7.83,82,87,5.35,CA,1604350800
189,Cooma,-36.2333,149.1333,56.21,87,49,0.81,AU,1604350800
190,Elk Plain,47.0532,-122.3976,64.8,40,6,3.02,US,1604350800
191,Baisha,26.5222,110.9311,56.97,67,88,1.9,CN,1604350800
192,Qaanaaq,77.484,-69.3632,6.24,78,96,6.69,GL,1604350800
193,Jesús María,-30.9815,-64.0942,80.56,30,0,10.69,AR,1604350800
194,Codrington,-38.2667,141.9667,62.64,60,97,13.82,AU,1604350800
195,Ilulissat,69.2167,-51.1,17.82,79,60,10.02,GL,1604350800
196,Biak,-0.9131,122.8766,77.31,66,100,3.38,ID,1604350800
197,Narsaq,60.9167,-46.05,21.58,65,83,10.78,GL,1604350800
198,Port-Cartier,50.0334,-66.8654,34.57,90,100,23.22,CA,1604350800
199,Severnoye,56.3491,78.3619,30.58,99,100,6.67,RU,1604350800
200,Korla,41.7597,86.1469,38.05,68,27,1.39,CN,1604350800
201,Serro,-18.6047,-43.3794,66.63,84,88,5.12,BR,1604350800
202,Constanța,44.1833,28.65,54.12,73,49,5.57,RO,1604350800
203,Dunedin,-45.8742,170.5036,54.07,67,91,7.45,NZ,1604350800
204,George Town,5.4112,100.3354,78.22,89,44,6.11,MY,1604350800
205,Sfântu Gheorghe,45.8667,25.7833,44.24,81,100,1.5,RO,1604350800
206,Half Moon Bay,37.4636,-122.4286,74.71,34,3,4.59,US,1604350800
207,Ternate,0.8,127.4,78.08,86,98,5.73,ID,1604350800
208,Province of Trapani,37.8333,12.6667,59.63,87,0,4.32,IT,1604350800
209,Carnarvon,-24.8667,113.6333,65.59,75,9,15.82,AU,1604350800
210,Okha,53.5739,142.9478,32.63,93,11,10.89,RU,1604350800
211,Aksu,41.1231,80.2644,39.27,63,14,0.94,CN,1604350800
212,Dalbandin,28.8947,64.4101,54.0,25,0,4.07,PK,1604350800
213,Makkah al Mukarramah,21.4267,39.8261,80.28,66,11,5.7,SA,1604350800
214,Newport,51.5877,-2.9984,48.56,71,9,20.11,GB,1604350800
215,Tuktoyaktuk,69.4541,-133.0374,5.25,84,94,12.68,CA,1604350800
216,Poum,-20.2333,164.0167,77.43,77,100,5.46,NC,1604350800
217,Bolivar,37.6145,-93.4105,59.34,36,0,14.79,US,1604350800
218,Chui,-33.6971,-53.4616,64.87,66,40,8.79,UY,1604350800
219,Ouango,4.3133,22.5552,72.32,93,85,1.34,CF,1604350800
220,Edgewater,28.9889,-80.9023,65.71,63,10,19.91,US,1604350800
221,Beloha,-25.1667,45.05,68.97,81,1,12.8,MG,1604350800
222,Longyearbyen,78.2186,15.6401,34.11,83,87,21.07,SJ,1604350800
223,Bitung,1.4451,125.1824,76.77,89,59,10.07,ID,1604350800
224,Jardim,-21.4803,-56.1381,84.72,41,30,4.32,BR,1604350800
225,Torbay,47.6666,-52.7314,54.54,94,95,37.36,CA,1604350800
226,Kavaratti,10.5669,72.642,82.38,69,0,4.99,IN,1604350800
227,Cabra,37.4725,-4.4421,64.72,62,0,2.73,ES,1604350800
228,Rosarito,32.3333,-117.0333,73.31,49,3,9.26,MX,1604350800
229,Alice Springs,-23.7,133.8833,74.62,20,0,7.2,AU,1604350800
230,Ubajara,-3.8544,-40.9211,82.94,52,63,1.86,BR,1604350800
231,Saldanha,-33.0117,17.9442,70.77,49,44,9.73,ZA,1604350800
232,Mersing,2.4312,103.8405,76.87,93,99,5.39,MY,1604350800
233,Rogovatoye,51.23,38.3818,48.42,91,96,9.71,RU,1604350800
234,Nelson Bay,-32.7167,152.15,63.32,77,87,7.52,AU,1604350800
235,Pailitas,8.9565,-73.6255,86.76,70,53,4.12,CO,1604350800
236,Dzhebariki-Khaya,62.2167,135.8,-12.82,87,0,3.31,RU,1604350800
237,Jackson,42.4165,-122.8345,78.08,27,1,1.79,US,1604350800
238,Taoudenni,22.6783,-3.9836,83.61,15,100,8.34,ML,1604350800
239,Denpasar,-8.65,115.2167,76.57,80,95,4.09,ID,1604350800
240,Rayong,12.8333,101.4333,78.4,84,31,6.33,TH,1604350800
241,Noumea,-22.2763,166.4572,78.66,67,49,0.04,NC,1604350800
242,Szigetvár,46.0486,17.8055,57.07,85,100,4.0,HU,1604350800
243,Fontem,5.4685,9.8818,68.41,83,76,3.09,CM,1604350800
244,Roald,62.5833,6.1333,49.62,71,69,25.03,NO,1604350800
245,Mahébourg,-20.4081,57.7,71.55,72,46,11.18,MU,1604350800
246,Luang Prabang,19.8856,102.1347,71.74,78,59,1.54,LA,1604350800
247,La Orilla,17.9833,-102.2333,88.56,51,9,4.41,MX,1604350800
248,Itamaraju,-17.0392,-39.5311,68.27,93,100,5.57,BR,1604350800
249,Deputatsky,69.3,139.9,-14.48,82,0,2.95,RU,1604350800
250,Portland,45.5234,-122.6762,64.53,42,10,1.36,US,1604350800
251,Nador,35.174,-2.9287,64.49,76,38,0.6,MA,1604350800
252,Lüderitz,-26.6481,15.1594,61.65,86,68,7.58,NA,1604350800
253,Vila Velha,-20.3297,-40.2925,71.73,61,41,14.56,BR,1604350800
254,Copperas Cove,31.1241,-97.9031,69.57,29,1,3.15,US,1604350800
255,Port-Gentil,-0.7193,8.7815,78.53,86,58,7.4,GA,1604350800
256,Saint-Joseph,-21.3667,55.6167,68.99,64,87,10.22,RE,1604350800
257,Riyadh,24.6877,46.7219,68.85,30,0,5.79,SA,1604350800
258,Micheweni,-4.9667,39.8333,78.13,79,62,10.96,TZ,1604350800
259,Norfolk,42.1668,-71.2495,36.48,60,64,14.47,US,1604350800
260,Nome,64.5011,-165.4064,21.0,89,46,4.52,US,1604350800
261,Bagotville,-28.9833,153.4167,63.91,69,51,12.17,AU,1604350800
262,Kaeo,-35.1,173.7833,66.96,82,98,11.36,NZ,1604350800
263,Tevaitoa,-16.7833,-151.5,80.89,77,1,18.59,PF,1604350800
264,San Carlos,9.6612,-68.5827,83.32,77,45,2.24,VE,1604350800
265,Kuzovatovo,53.5468,47.6866,37.92,87,100,5.7,RU,1604350800
266,Kruisfontein,-34.0033,24.7314,62.47,91,0,9.89,ZA,1604350800
267,Valparaíso,-33.0393,-71.6273,57.96,76,28,12.3,CL,1604350800
268,Kamenka,51.3223,42.7678,43.41,84,66,8.77,RU,1604350800
269,Aden,12.7794,45.0367,81.66,68,0,14.14,YE,1604350800
270,Talnakh,69.4865,88.3972,14.22,94,99,6.06,RU,1604350800
271,Lumphat,13.4878,106.9816,67.26,84,76,3.02,KH,1604350800
272,Dingle,10.9995,122.6711,75.54,88,98,4.99,PH,1604350800
273,Cruz Alta,-28.6386,-53.6064,73.4,44,0,8.3,BR,1604350800
274,Sulangan,11.1373,123.7228,82.83,74,94,6.73,PH,1604350800
275,Sun Valley,39.5963,-119.776,72.57,13,1,3.51,US,1604350800
276,Chapais,49.7834,-74.8492,20.08,84,85,7.87,CA,1604350800
277,Urengoy,65.9667,78.3667,23.18,97,99,12.97,RU,1604350800
278,Pangody,65.85,74.4859,16.77,96,60,10.04,RU,1604350800
279,Tsimmerbude,54.675,20.1347,56.53,97,87,12.37,RU,1604350800
280,Ulladulla,-35.35,150.4667,61.56,86,5,1.74,AU,1604350800
281,Alta Floresta,-9.8756,-56.0861,79.75,82,89,3.76,BR,1604350800
282,Ushtobe,45.2514,77.9838,42.78,60,94,4.43,KZ,1604350800
283,Rome,43.2128,-75.4557,33.24,81,75,16.08,US,1604350800
284,Cockburn Town,21.4612,-71.1419,83.23,73,47,12.95,TC,1604350800
285,Shihezi,44.3,86.0333,38.35,69,9,2.46,CN,1604350800
286,Beitbridge,-22.2167,30.0,77.72,49,42,9.24,ZW,1604350800
287,Vila do Maio,15.1333,-23.2167,80.8,58,17,9.86,CV,1604350800
288,Hazorasp,41.3194,61.0742,52.83,40,0,8.23,UZ,1604350800
289,Sarab,38.6066,44.9883,59.11,41,79,5.64,IR,1604350800
290,Muros,42.7762,-9.0603,55.49,82,49,4.56,ES,1604350800
291,Gmina Opole Lubelskie,51.1478,21.969,52.38,69,100,8.19,PL,1604350800
292,Katangli,51.7102,143.2326,32.54,93,51,6.6,RU,1604350800
293,Mogadishu,2.0371,45.3438,79.48,82,1,9.28,SO,1604350800
294,Rawson,-43.3002,-65.1023,79.54,22,63,7.78,AR,1604350800
295,Navalmoral de la Mata,39.8916,-5.5406,61.79,83,93,1.88,ES,1604350800
296,Namatanai,-3.6667,152.4333,82.42,78,10,3.11,PG,1604350800
297,Ostrovnoy,68.0531,39.5131,35.38,84,85,31.23,RU,1604350800
298,El Alto,-4.2714,-81.2147,67.42,72,32,17.02,PE,1604350800
299,Kulhudhuffushi,6.6221,73.07,82.96,69,12,7.29,MV,1604350800
300,Virginia Beach,36.8529,-75.978,50.88,41,0,17.49,US,1604350800
301,Kirkwall,58.9848,-2.9587,50.18,75,82,24.92,GB,1604350800
302,Bartica,6.4,-58.6167,74.28,96,87,2.93,GY,1604350800
303,Bathsheba,13.2167,-59.5167,82.47,71,59,15.93,BB,1604350800
304,Kununurra,-15.7667,128.7333,87.76,58,65,7.87,AU,1604350800
305,Aras,42.5617,-2.356,58.1,84,84,3.15,ES,1604350800
306,Colquechaca,-18.6667,-66.0167,44.08,59,20,8.7,BO,1604350800
307,Voh,-20.9667,164.7,79.7,75,100,2.89,NC,1604350800
308,Amalāpuram,16.5833,82.0167,76.71,82,40,2.06,IN,1604350800
309,Ahipara,-35.1667,173.1667,67.19,81,98,13.67,NZ,1604350800
310,Salalah,17.0151,54.0924,75.4,55,0,2.62,OM,1604350800
311,Matamoros,25.5333,-103.25,74.71,29,3,9.98,MX,1604350800
312,Bemidji,47.4736,-94.8803,51.06,66,16,8.16,US,1604350800
313,Pevek,69.7008,170.3133,13.73,89,88,18.07,RU,1604350800
314,Sioux Lookout,50.1001,-91.917,40.01,75,86,7.74,CA,1604350800
315,Aleksandrov Gay,50.147,48.5704,49.84,48,96,6.31,RU,1604350800
316,Natal,-5.795,-35.2094,80.51,75,21,11.86,BR,1604350800
317,Fort William,56.8165,-5.1121,42.78,88,98,4.05,GB,1604350800
318,Gari,59.4307,62.3497,24.55,97,0,4.92,RU,1604350800
319,Esperance,-33.8667,121.9,61.3,91,80,17.29,AU,1604350800
320,San Cristobal,7.7669,-72.225,79.0,79,69,0.43,VE,1604350800
321,Thinadhoo,0.5333,72.9333,82.89,75,100,8.97,MV,1604350800
322,Fairbanks,64.8378,-147.7164,0.45,85,41,1.5,US,1604350800
323,Cocobeach,1.0002,9.5823,79.81,85,59,2.66,GA,1604350800
324,Ballina,-28.8667,153.5667,64.04,71,63,13.76,AU,1604350800
325,Hīt,33.6416,42.8251,78.15,32,100,6.49,IQ,1604350800
326,La Ronge,55.1001,-105.2842,41.85,83,94,5.57,CA,1604350800
327,Kattivākkam,13.2167,80.3167,81.41,84,13,5.68,IN,1604350800
328,Hambantota,6.1241,81.1185,79.36,82,85,7.76,LK,1604350800
329,Upernavik,72.7868,-56.1549,17.02,92,96,7.94,GL,1604350800
330,Cotonou,6.3654,2.4183,80.8,84,59,7.23,BJ,1604350800
331,Varhaug,58.6147,5.6457,50.18,86,71,17.49,NO,1604350800
332,Beyneu,45.3167,55.2,53.58,39,10,16.11,KZ,1604350800
333,Zimovniki,47.1483,42.4633,55.2,78,97,6.6,RU,1604350800
334,Pokhara,28.2333,83.9833,64.8,47,0,5.7,NP,1604350800
335,Horconcitos,8.4682,-81.8007,68.74,98,100,6.42,PA,1604350800
336,Albuquerque,35.0845,-106.6511,68.18,25,24,4.43,US,1604350800
337,Humberto de Campos,-2.5983,-43.4611,85.46,62,74,6.8,BR,1604350800
338,Kushmurun,52.4503,64.6311,31.19,96,11,3.89,KZ,1604350800
339,Hobyo,5.3505,48.5268,80.91,79,49,10.78,SO,1604350800
340,Ust'-Kulom,61.6864,53.6902,26.74,95,32,4.88,RU,1604350800
341,Paamiut,61.994,-49.6678,30.69,82,99,17.22,GL,1604350800
342,Novaya Igirma,57.1334,103.9112,27.18,95,100,9.93,RU,1604350800
343,Ilhabela,-23.7781,-45.3581,67.82,60,70,4.25,BR,1604350800
344,Cayenne,4.9333,-52.3333,78.64,91,59,14.32,GF,1604350800
345,Russell,32.3502,-85.1999,61.41,31,1,6.49,US,1604350800
346,Dudinka,69.4058,86.1778,13.71,95,96,6.49,RU,1604350800
347,Nioro,13.35,-15.75,86.56,36,62,6.06,GM,1604350800
348,Vaitape,-16.5167,-151.75,80.46,77,2,15.55,PF,1604350800
349,Kudahuvadhoo,2.6708,72.8944,82.51,74,88,9.04,MV,1604350800
350,Ponta Delgada,37.7333,-25.6667,62.74,69,57,13.96,PT,1604350800
351,Tabuk,17.4189,121.4443,73.17,91,100,5.79,PH,1604350800
352,Fortuna,40.5982,-124.1573,70.29,49,10,6.17,US,1604350800
353,Port Hardy,50.6996,-127.4199,49.3,89,95,24.47,CA,1604350800
354,Santa Marta de Tormes,40.9506,-5.6272,58.3,85,48,5.88,ES,1604350800
355,Nuuk,64.1835,-51.7216,22.46,69,86,8.59,GL,1604350800
356,Manaure,11.7751,-72.4445,85.55,67,97,13.15,CO,1604350800
357,Pangnirtung,66.1451,-65.7125,14.36,68,59,8.23,CA,1604350800
358,Vao,-22.6667,167.4833,74.82,91,100,4.52,NC,1604350800
359,Aklavik,68.2191,-135.0107,3.22,83,68,7.34,CA,1604350800
360,Baruun-Urt,46.6806,113.2792,12.06,77,0,7.14,MN,1604350800
361,Anklam,53.8564,13.6897,62.15,86,91,14.34,DE,1604350800
362,Saint George,37.1041,-113.5841,80.73,18,40,1.97,US,1604350800
363,Paidha,2.4167,30.9855,63.81,86,85,1.74,UG,1604350800
364,Fairview,40.8126,-73.999,43.75,41,1,16.53,US,1604350800
365,Cap Malheureux,-19.9842,57.6142,72.39,67,37,11.18,MU,1604350800
366,Ambilobe,-13.2,49.05,71.78,71,14,5.35,MG,1604350800
367,Craig,40.5153,-107.5464,63.16,22,1,3.56,US,1604350800
368,Brigantine,39.4101,-74.3646,46.94,40,1,22.46,US,1604350800
369,Isla Vista,34.4133,-119.861,81.97,49,20,4.56,US,1604350800
370,Esna,25.2934,32.554,73.22,48,0,10.71,EG,1604350800
371,Madang,-5.2246,145.7966,78.67,82,87,4.43,PG,1604350800
372,Marsá Maţrūḩ,31.3525,27.2453,70.41,62,37,5.84,EG,1604350800
373,Nishihara,26.1842,127.7558,74.14,80,86,20.69,JP,1604350800
374,El Paujíl,1.5701,-75.3286,84.96,71,85,2.17,CO,1604350800
375,Yangi Marg`ilon,40.4272,71.7189,47.73,41,0,1.05,UZ,1604350800
376,Northam,51.0333,-4.2167,49.08,69,4,15.77,GB,1604350800
377,Oxapampa,-10.5775,-75.4017,66.07,76,96,2.68,PE,1604350800
378,Luba,3.4568,8.5547,78.94,88,21,2.68,GQ,1604350800
379,Vitim,59.4511,112.5578,11.32,88,100,5.73,RU,1604350800
380,Çumra,37.5732,32.7745,45.21,54,0,3.33,TR,1604350800
381,Koupéla,12.1794,-0.3517,83.32,19,38,7.99,BF,1604350800
382,Sørland,67.667,12.6934,47.57,89,86,23.91,NO,1604350800
383,Gushikawa,26.3544,127.8686,74.19,81,94,22.06,JP,1604350800
384,Huarmey,-10.0681,-78.1522,67.6,66,88,8.03,PE,1604350800
385,Barra do Garças,-15.89,-52.2567,88.72,44,60,4.45,BR,1604350800
386,Stokmarknes,68.5646,14.9108,47.25,87,87,13.76,NO,1604350800
387,Dulce Nombre de Culmí,15.1,-85.5333,74.32,87,95,4.74,HN,1604350800
388,Boyabat,41.4689,34.7667,47.71,76,5,0.4,TR,1604350800
389,Quatre Cocos,-20.2078,57.7625,71.24,71,41,10.56,MU,1604350800
390,Chifeng,42.2683,118.9636,23.45,71,0,9.57,CN,1604350800
391,Camopi,3.1655,-52.3158,85.21,65,87,5.64,GF,1604350800
392,Anshun,26.25,105.9333,46.54,81,100,8.39,CN,1604350800
393,Mahon,39.8885,4.2658,65.53,79,38,9.8,ES,1604350800
394,Eyemouth,55.8713,-2.0901,47.01,83,82,17.78,GB,1604350800
395,Sinegor'ye,62.0788,150.477,7.29,91,100,4.09,RU,1604350800
396,Soe,-9.8607,124.284,66.83,85,69,3.89,ID,1604350800
397,Kamaishi,39.2667,141.8833,54.91,75,100,1.32,JP,1604350800
398,Orbetello,42.4408,11.2196,58.86,87,53,2.13,IT,1604350800
399,Bonavista,48.6499,-53.1147,53.29,94,96,37.87,CA,1604350800
400,Encheng,22.1839,112.3026,67.01,76,66,6.4,CN,1604350800
401,Bud,39.447,-86.1758,47.32,39,1,12.66,US,1604350800
402,Port Lincoln,-34.7333,135.8667,73.72,31,53,19.28,AU,1604350800
403,Dingcheng,32.1272,115.0394,51.96,47,0,7.45,CN,1604350800
404,Manche,49.0,-1.1667,48.33,77,0,5.66,FR,1604350800
405,Assiniboia,49.6334,-105.9845,63.72,26,6,15.39,CA,1604350800
406,Saint Lawrence,36.0553,14.204,67.44,81,10,11.32,MT,1604350800
407,Moerai,-22.4333,-151.3333,76.73,83,25,15.95,PF,1604350800
408,Nouadhibou,20.931,-17.0347,74.19,55,45,19.66,MR,1604350800
409,Laguna,38.421,-121.4238,82.33,20,1,3.51,US,1604350800
410,Misratah,32.3754,15.0925,70.41,60,0,4.43,LY,1604350800
411,Chimbote,-9.0853,-78.5783,67.21,68,66,9.13,PE,1604350800
412,Bilibino,68.0546,166.4372,-2.79,89,96,3.2,RU,1604350800
413,Redmond,47.674,-122.1215,65.79,48,3,4.61,US,1604350800
414,Barguzin,53.6167,109.6167,15.87,81,50,3.06,RU,1604350800
415,Labuhan,-6.8844,112.2051,78.78,83,100,8.81,ID,1604350800
416,Baghdad,33.3406,44.4009,78.73,25,86,6.96,IQ,1604350800
417,Nhulunbuy,-12.2333,136.7667,80.35,78,95,6.26,AU,1604350800
418,Linxia Chengguanzhen,35.6003,103.2064,38.41,71,71,0.98,CN,1604350800
419,Sangar,63.9242,127.4739,-10.34,90,48,2.98,RU,1604350800
420,Prince Rupert,54.3161,-130.3201,50.68,86,90,12.19,CA,1604350800
421,Catazaja,17.725,-92.0167,79.47,79,37,7.23,MX,1604350800
422,Phon,15.816,102.5998,72.05,78,40,7.18,TH,1604350800
423,Katherine,-14.4667,132.2667,79.7,67,66,5.73,AU,1604350800
424,Yumen,40.2833,97.2,36.05,70,0,10.33,CN,1604350800
425,Ust'-Kan,50.9276,84.761,26.44,89,97,2.08,RU,1604350800
426,Uyar,55.81,94.3153,29.97,98,85,7.76,RU,1604350800
427,Togur,58.3631,82.8265,30.72,99,100,6.73,RU,1604350800
428,Panguna,-6.3164,155.4848,75.31,92,44,1.03,PG,1604350800
429,Rondonópolis,-16.4708,-54.6356,89.4,40,56,5.7,BR,1604350800
430,Fraserburgh,57.6874,-2.0184,48.11,74,87,18.16,GB,1604350800
431,Qui Nhon,13.7667,109.2333,73.58,86,100,11.56,VN,1604350800
432,Bryan,30.6744,-96.37,69.96,32,1,5.28,US,1604350800
433,Kiryat Gat,31.61,34.7642,67.28,73,12,1.79,IL,1604350800
434,Aksarka,66.5606,67.7975,17.58,95,41,10.71,RU,1604350800
435,Coquimbo,-29.9533,-71.3436,58.64,73,46,8.68,CL,1604350800
436,Port Blair,11.6667,92.75,80.24,81,82,5.1,IN,1604350800
437,Oistins,13.0667,-59.5333,82.4,71,57,16.75,BB,1604350800
438,Chumikan,54.7183,135.315,16.14,96,100,19.75,RU,1604350800
439,Sandpoint,48.2766,-116.5533,59.05,39,1,2.57,US,1604350800
440,Matara,5.9485,80.5353,77.49,84,83,7.18,LK,1604350800
441,Laï,9.3952,16.2989,81.91,48,44,2.53,TD,1604350800
442,Asău,46.4333,26.4,45.88,81,96,4.52,RO,1604350800
443,Sinop Province,41.7711,34.8709,46.17,84,36,3.51,TR,1604350800
444,Sibi,29.5448,67.8764,65.52,19,0,4.52,PK,1604350800
445,Quesnel,52.9999,-122.5029,51.24,54,95,7.31,CA,1604350800
446,Felanitx,39.4696,3.1483,60.19,85,20,3.49,ES,1604350800
447,Rodolfo Sánchez Taboada,31.7167,-116.5667,77.54,66,0,7.58,MX,1604350800
448,Marzuq,14.4,46.4667,62.83,30,0,1.59,YE,1604350800
449,Cartagena del Chairá,1.3349,-74.8429,86.65,65,84,1.68,CO,1604350800
450,Krutikha,53.9599,81.2093,31.23,95,100,3.58,RU,1604350800
451,Businga,3.3333,20.8833,73.09,94,90,2.39,CD,1604350800
452,Reconquista,-29.15,-59.65,78.67,38,0,8.23,AR,1604350800
453,Shingū,33.7333,135.9833,59.58,92,100,4.47,JP,1604350800
454,Hua Hin,12.5707,99.9588,78.78,83,25,6.89,TH,1604350800
455,Anáhuac,27.2333,-100.15,74.88,29,48,6.44,MX,1604350800
456,Kutum,14.2,24.6667,75.9,27,3,17.2,SD,1604350800
457,Vila Franca do Campo,37.7167,-25.4333,61.66,70,66,12.06,PT,1604350800
458,Hopfgarten,50.9833,11.2667,60.76,81,38,12.19,DE,1604350800
459,Dukat,62.55,155.55,10.58,95,95,3.38,RU,1604350800
460,Geraldton,-28.7667,114.6,65.03,85,61,12.93,AU,1604350800
461,Guilin,25.2819,110.2864,60.08,70,95,6.04,CN,1604350800
462,Sur,22.5667,59.5289,69.89,52,0,2.19,OM,1604350800
463,Qujing,25.4833,103.7833,46.92,92,100,2.75,CN,1604350800
464,Tiznit Province,29.5833,-9.5,70.32,36,0,2.13,MA,1604350800
465,Mafinga,-7.25,35.0667,73.53,48,70,7.07,TZ,1604350800
466,Linden,6.0,-58.3,74.71,95,87,2.73,GY,1604350800
467,Qingdao,36.0986,120.3719,48.02,60,0,13.78,CN,1604350800
468,Nouakchott,18.0858,-15.9785,84.18,36,100,12.93,MR,1604350800
469,Hokitika,-42.7167,170.9667,51.78,87,100,4.94,NZ,1604350800
470,Oussouye,12.485,-16.5469,84.18,58,9,5.01,SN,1604350800
471,Agadez,19.75,10.25,71.01,24,0,7.2,NE,1604350800
472,Qaqortoq,60.7167,-46.0333,22.71,67,82,11.61,GL,1604350800
473,Camaná,-16.6228,-72.7111,68.41,70,43,7.09,PE,1604350800
474,Tuatapere,-46.1333,167.6833,53.8,67,62,0.74,NZ,1604350800
475,Sisimiut,66.9395,-53.6735,21.52,88,85,17.87,GL,1604350800
476,Sitrah,26.1547,50.6206,81.05,55,0,5.75,BH,1604350800
477,Diamantino,-14.4086,-56.4461,89.49,42,68,4.05,BR,1604350800
478,Changli,39.7042,119.1506,33.17,66,0,10.94,CN,1604350800
479,Turaif,31.6725,38.6637,61.09,70,4,5.64,SA,1604350800
480,Salamiyah,35.0113,37.0532,63.25,78,25,2.73,SY,1604350800
481,Dwārka,22.2394,68.9678,80.65,55,0,11.48,IN,1604350800
482,Broken Hill,-31.95,141.4333,72.79,37,14,15.7,AU,1604350800
483,Yaya,56.206,86.44,29.34,96,97,6.98,RU,1604350800
484,La Rioja,42.25,-2.5,56.39,84,84,1.92,ES,1604350800
485,Umba,66.6871,34.3429,36.48,87,77,23.04,RU,1604350800
486,Isangel,-19.55,169.2667,76.15,88,98,16.08,VU,1604350800
487,Manadhoo,5.7667,73.3833,82.63,74,29,6.53,MV,1604350800
488,Gamba,-2.65,10.0,75.04,92,61,0.43,GA,1604350800
489,Nanortalik,60.1432,-45.2371,30.4,87,81,8.08,GL,1604350800
490,Hamilton,39.1834,-84.5333,47.75,38,1,10.83,US,1604350800
491,Dawlatabad,36.4141,64.9053,54.3,36,0,1.28,AF,1604350800
492,Los Llanos de Aridane,28.6585,-17.9182,68.83,72,6,14.07,ES,1604350800
493,Roseau,15.3017,-61.3881,82.94,69,49,14.88,DM,1604350800
494,Kushima,31.4583,131.2333,60.84,90,43,5.55,JP,1604350800
495,Palafrugell,41.9174,3.1631,59.83,70,38,2.59,ES,1604350800
496,San Luis,-33.295,-66.3356,85.26,16,0,6.4,AR,1604350800
497,Mackenzie,55.2999,-123.1698,42.39,80,95,6.67,CA,1604350800
498,Churapcha,62.0025,132.4325,-15.38,89,22,3.83,RU,1604350800
499,Taman',45.2117,36.7161,55.27,83,93,5.3,RU,1604350800
500,Sungai Penuh,-2.0833,101.3833,65.7,95,100,0.78,ID,1604350800
501,Cacoal,-11.4386,-61.4472,89.78,53,96,5.06,BR,1604350800
502,Lagoa,39.05,-27.9833,62.15,62,80,13.73,PT,1604350800
503,Tynda,55.1667,124.7167,-3.78,88,31,3.85,RU,1604350800
504,Båtsfjord,70.6345,29.7185,37.29,85,87,20.36,NO,1604350800
505,Cerqueira César,-23.0356,-49.1661,72.41,45,5,9.42,BR,1604350800
506,Praia,14.9215,-23.5087,80.49,54,13,9.73,CV,1604350800
507,Kalmar,56.6616,16.3616,59.0,83,71,18.05,SE,1604350800
508,Kaputa,-8.4689,29.6619,76.26,67,64,5.57,ZM,1604350800
509,Neiafu,-18.65,-173.9833,76.75,90,67,24.16,TO,1604350800
510,Salinas,36.6777,-121.6555,83.66,18,1,6.76,US,1604350800
511,Araguaína,-7.1911,-48.2072,83.7,65,78,7.25,BR,1604350800
512,General Pico,-35.6566,-63.7568,82.4,27,0,12.93,AR,1604350800
513,Khovd,48.0056,91.6419,27.09,82,71,2.17,MN,1604350800
514,Olafsvik,64.8945,-23.7142,39.6,78,100,20.87,IS,1604350800
515,Helong,42.5397,128.9972,25.92,78,0,10.09,CN,1604350800
516,Radcliff,37.8404,-85.9491,48.45,37,1,9.69,US,1604350800
517,College,64.8569,-147.8028,1.04,81,46,1.32,US,1604350800
518,Xihe,31.6864,113.4659,52.95,49,8,6.2,CN,1604350800
519,Toora-Khem,52.4675,96.11,24.35,93,96,2.57,RU,1604350800
520,Smolenskaya Oblast’,55.0,33.0,44.38,91,99,5.26,RU,1604350800
521,Mossendjo,-2.9506,12.7261,72.41,91,95,1.7,CG,1604350800
522,Mossamedes,-15.1961,12.1522,68.81,77,23,3.85,AO,1604350800
523,Samarai,-10.6167,150.6667,82.08,81,76,6.8,PG,1604350800
524,Sistranda,63.7256,8.834,48.38,79,77,23.29,NO,1604350800
525,Hualmay,-11.0964,-77.6139,67.98,65,95,7.92,PE,1604350800
526,Svetogorsk,61.1121,28.8632,44.38,86,90,18.5,RU,1604350800
527,Chipata,-13.6333,32.65,71.76,62,52,5.01,ZM,1604350800
528,Curitibanos,-27.2828,-50.5844,67.35,47,56,3.38,BR,1604350800
529,Tocache,-8.1842,-76.5125,88.47,45,75,0.63,PE,1604350800
530,Arman',59.7,150.1667,32.22,96,100,17.2,RU,1604350800
531,Batagay-Alyta,67.8006,130.4114,-8.18,83,57,2.35,RU,1604350800
532,Tacuarembó,-31.7333,-55.9833,67.89,60,32,6.82,UY,1604350800
533,Kaduna,10.5222,7.4383,76.77,33,53,6.64,NG,1604350800
534,Dholka,22.7167,72.4667,74.14,49,0,6.51,IN,1604350800
535,Tual,-5.6667,132.75,83.91,73,100,7.52,ID,1604350800
536,Pringsewu,-5.3582,104.9744,75.24,87,75,4.38,ID,1604350800
537,Sławno,54.3628,16.6789,61.61,85,98,12.37,PL,1604350800
538,Trige,56.2529,10.1484,50.38,84,55,14.07,DK,1604350800
539,Gobabis,-22.45,18.9667,73.81,43,73,19.89,NA,1604350800
540,Lábrea,-7.2586,-64.7981,92.77,47,73,2.04,BR,1604350800
541,Wuda,39.4994,106.7117,36.36,62,0,7.65,CN,1604350800
542,Kumul,42.8,93.45,39.42,66,0,3.31,CN,1604350800
543,Rusape,-18.5278,32.1284,68.76,53,52,7.45,ZW,1604350800
544,Kahului,20.8947,-156.47,80.53,67,69,7.2,US,1604350800
545,Upata,8.0086,-62.3989,73.24,92,100,4.25,VE,1604350800
546,Klaksvík,62.2266,-6.589,46.56,71,24,27.18,FO,1604350800
547,Mpanda,-6.3655,31.0409,73.83,56,53,1.61,TZ,1604350800
548,Ţahţā,26.7693,31.5021,71.64,49,0,7.76,EG,1604350800
549,Olavarría,-36.8927,-60.3225,73.15,56,0,7.52,AR,1604350800
550,Pishin,30.5803,66.9961,40.89,46,0,1.9,PK,1604350800
551,Florø,61.5996,5.0328,48.65,77,87,14.29,NO,1604350800
552,Shubarshi,48.5872,57.1869,48.15,48,61,9.64,KZ,1604350800
553,Ciudad Guayana,8.3533,-62.6528,77.22,87,99,6.64,VE,1604350800
554,Necochea,-38.5473,-58.7368,70.63,53,0,11.18,AR,1604350800
555,Urussu,54.5981,53.4631,32.11,96,40,3.94,RU,1604350800
556,Rocha,-34.4833,-54.3333,64.22,68,35,8.39,UY,1604350800
557,Urzhum,57.1141,49.9996,28.98,95,8,5.06,RU,1604350800
558,Pasni,25.2631,63.471,74.77,42,0,7.58,PK,1604350800
559,Sandusky,41.3501,-83.1332,44.89,47,21,20.0,US,1604350800
560,Goundam,16.4145,-3.6708,88.84,12,83,12.84,ML,1604350800
561,Yuzhno-Kurilsk,44.0306,145.8556,48.22,84,97,18.01,RU,1604350800
562,Awjilah,29.1081,21.2869,65.8,59,0,11.1,LY,1604350800
563,Bograd,54.2344,90.8328,33.58,98,41,3.04,RU,1604350800
564,Middlebury (village),44.0153,-73.1673,31.64,83,11,10.27,US,1604350800
